{"user_history": [{"user_id":"CxDOIDnH8gp9KXzpBHJYXw","state":"ON","city":"Whitby","neighborhood":"","latitude":43.8756,"longitude":-78.9596,"address":"939 Dundas Street W","name":"Butchies","date":"2017-07-25 00:00:00"},{"user_id":"CxDOIDnH8gp9KXzpBHJYXw","state":"ON","city":"Scarborough","neighborhood":"Scarborough","latitude":43.8066,"longitude":-79.2889,"address":"3300 Midland Avenue, Unit 37","name":"Latea Era","date":"2017-07-22 00:00:00"},{"user_id":"CxDOIDnH8gp9KXzpBHJYXw","state":"ON","city":"Toronto","neighborhood":"Upper Beach","latitude":43.6804,"longitude":-79.2889,"address":"924 Kingston Road","name":"The Beech Tree","date":"2017-07-20 00:00:00"},{"user_id":"CxDOIDnH8gp9KXzpBHJYXw","state":"ON","city":"Toronto","neighborhood":"","latitude":43.7967,"longitude":-79.4194,"address":"6355 Yonge Street","name":"Starbucks","date":"2017-07-18 00:00:00"},{"user_id":"CxDOIDnH8gp9KXzpBHJYXw","state":"ON","city":"Toronto","neighborhood":"","latitude":43.7967,"longitude":-79.4194,"address":"6355 Yonge Street","name":"Starbucks","date":"2017-07-18 00:00:00"},{"user_id":"CxDOIDnH8gp9KXzpBHJYXw","state":"ON","city":"Toronto","neighborhood":"Upper Beach","latitude":43.6727,"longitude":-79.3191,"address":"242 Coxwell Avenue","name":"Godspeed Brewery","date":"2017-07-17 00:00:00"},{"user_id":"CxDOIDnH8gp9KXzpBHJYXw","state":"ON","city":"Toronto","neighborhood":"Scarborough","latitude":43.8049,"longitude":-79.288,"address":"3250 Midland Avenue","name":"Noodle Bar","date":"2017-07-16 00:00:00"},{"user_id":"CxDOIDnH8gp9KXzpBHJYXw","state":"ON","city":"Markham","neighborhood":"Brown's Corners","latitude":43.8437,"longitude":-79.3554,"address":"8241 Woodbine Avenue, Unit 6 & 7","name":"Initium","date":"2017-07-16 00:00:00"},{"user_id":"CxDOIDnH8gp9KXzpBHJYXw","state":"QC","city":"Montr√©al","neighborhood":"Plateau-Mont-Royal","latitude":45.525,"longitude":-73.5754,"address":"951 Rue Rachel Est","name":"Pit Caribou","date":"2017-07-16 00:00:00"},{"user_id":"bLbSNkLggFnqwNNzzq-Ijw","state":"NV","city":"Las Vegas","neighborhood":"Eastside","latitude":36.1101,"longitude":-115.154,"address":"4455 Paradise Rd","name":"Elite Event: Awe Shucks at Oyster Bar","date":"2017-07-25 00:00:00"},{"user_id":"bLbSNkLggFnqwNNzzq-Ijw","state":"NV","city":"Las Vegas","neighborhood":"Southeast","latitude":36.0724,"longitude":-115.1,"address":"6420 S Pecos Rd, Ste C","name":"U.S Fried Chicken Halal","date":"2017-07-24 00:00:00"},{"user_id":"bLbSNkLggFnqwNNzzq-Ijw","state":"NV","city":"Las Vegas","neighborhood":"Westside","latitude":36.1445,"longitude":-115.296,"address":"9134 W Sahara","name":"Sushi Burrito Bowl","date":"2017-07-22 00:00:00"},{"user_id":"bLbSNkLggFnqwNNzzq-Ijw","state":"NV","city":"Las Vegas","neighborhood":"","latitude":36.0165,"longitude":-115.117,"address":"9500 S Eastern Ave, Ste 110","name":"Rolled Ice Cream","date":"2017-07-22 00:00:00"},{"user_id":"bLbSNkLggFnqwNNzzq-Ijw","state":"NV","city":"Henderson","neighborhood":"","latitude":36.0282,"longitude":-115.049,"address":"27 S Stephanie St, Ste 100","name":"Toppled Tortoise","date":"2017-07-11 00:00:00"},{"user_id":"bLbSNkLggFnqwNNzzq-Ijw","state":"NV","city":"Las Vegas","neighborhood":"Downtown","latitude":36.1674,"longitude":-115.139,"address":"616 E Carson Ave, Ste 140","name":"Two Bald Brothers","date":"2017-07-10 00:00:00"},{"user_id":"bLbSNkLggFnqwNNzzq-Ijw","state":"NV","city":"Las Vegas","neighborhood":"Spring Valley","latitude":36.0988,"longitude":-115.243,"address":"4950 S Rainbow Blvd, Ste 100","name":"595 Craft And Kitchen","date":"2017-07-09 00:00:00"},{"user_id":"bLbSNkLggFnqwNNzzq-Ijw","state":"NV","city":"Las Vegas","neighborhood":"","latitude":36.1952,"longitude":-115.257,"address":"7501 W Lake Mead Blvd, Ste 107","name":"Vegas Discount Nutrition Superstore","date":"2017-07-07 00:00:00"},{"user_id":"bLbSNkLggFnqwNNzzq-Ijw","state":"NV","city":"Las Vegas","neighborhood":"","latitude":36.0274,"longitude":-115.049,"address":"43 S Stephanie St, Ste 120, EOS Gym","name":"Jozo Coffee Tea Boba House","date":"2017-07-06 00:00:00"},{"user_id":"mkbx55W8B8aPLgDqex7qgg","state":"NV","city":"Henderson","neighborhood":"Anthem","latitude":35.9984,"longitude":-115.111,"address":"2811 W Horizon Ridge Pkwy","name":"Desert Radiology","date":"2017-07-25 00:00:00"},{"user_id":"mkbx55W8B8aPLgDqex7qgg","state":"NV","city":"Henderson","neighborhood":"Anthem","latitude":35.9984,"longitude":-115.111,"address":"2811 W Horizon Ridge Pkwy","name":"Desert Radiology","date":"2017-07-25 00:00:00"},{"user_id":"mkbx55W8B8aPLgDqex7qgg","state":"NV","city":"Henderson","neighborhood":"","latitude":36.0215,"longitude":-115.049,"address":"1430 W Horizon Ridge Pkwy","name":"Ricos Tacos El Tio","date":"2017-07-25 00:00:00"},{"user_id":"mkbx55W8B8aPLgDqex7qgg","state":"NV","city":"Henderson","neighborhood":"","latitude":36.0215,"longitude":-115.049,"address":"1430 W Horizon Ridge Pkwy","name":"Ricos Tacos El Tio","date":"2017-07-25 00:00:00"},{"user_id":"mkbx55W8B8aPLgDqex7qgg","state":"NV","city":"Henderson","neighborhood":"","latitude":36.0215,"longitude":-115.049,"address":"1430 W Horizon Ridge Pkwy","name":"Ricos Tacos El Tio","date":"2017-07-25 00:00:00"},{"user_id":"mkbx55W8B8aPLgDqex7qgg","state":"NV","city":"Henderson","neighborhood":"","latitude":36.0215,"longitude":-115.049,"address":"1430 W Horizon Ridge Pkwy","name":"Ricos Tacos El Tio","date":"2017-07-25 00:00:00"},{"user_id":"mkbx55W8B8aPLgDqex7qgg","state":"NV","city":"Las Vegas","neighborhood":"Southeast","latitude":36.0126,"longitude":-115.12,"address":"9711 S Eastern Ave, Ste H-1","name":"La Flor de Michoacan","date":"2017-07-24 00:00:00"},{"user_id":"mkbx55W8B8aPLgDqex7qgg","state":"NV","city":"Las Vegas","neighborhood":"Southeast","latitude":36.0126,"longitude":-115.12,"address":"9711 S Eastern Ave, Ste H-1","name":"La Flor de Michoacan","date":"2017-07-24 00:00:00"},{"user_id":"mkbx55W8B8aPLgDqex7qgg","state":"NV","city":"Las Vegas","neighborhood":"Southeast","latitude":36.0126,"longitude":-115.12,"address":"9711 S Eastern Ave, Ste H-1","name":"La Flor de Michoacan","date":"2017-07-24 00:00:00"},{"user_id":"6ZC-0LfOAGwaFc5XPke74w","state":"NV","city":"Las Vegas","neighborhood":"Centennial","latitude":36.2911,"longitude":-115.287,"address":"7170 N Durango Dr, Ste 110","name":"Starbucks","date":"2016-12-17 00:00:00"},{"user_id":"6ZC-0LfOAGwaFc5XPke74w","state":"NV","city":"Las Vegas","neighborhood":"Downtown","latitude":36.1634,"longitude":-115.147,"address":"353 E Bonneville Ave, Ste 103","name":"Juhl","date":"2016-12-12 00:00:00"},{"user_id":"6ZC-0LfOAGwaFc5XPke74w","state":"NV","city":"Las Vegas","neighborhood":"Downtown","latitude":36.1716,"longitude":-115.142,"address":"201 N 3rd St","name":"Pizza Rock","date":"2016-10-30 00:00:00"},{"user_id":"6ZC-0LfOAGwaFc5XPke74w","state":"NV","city":"Las Vegas","neighborhood":"Centennial","latitude":36.2747,"longitude":-115.246,"address":"6250 Rio Vista St","name":"Bob Taylor's Ranch House","date":"2016-10-30 00:00:00"},{"user_id":"6ZC-0LfOAGwaFc5XPke74w","state":"NV","city":"Las Vegas","neighborhood":"Downtown","latitude":36.1587,"longitude":-115.166,"address":"1811 W Charleston Blvd","name":"Real Donuts","date":"2016-10-30 00:00:00"},{"user_id":"6ZC-0LfOAGwaFc5XPke74w","state":"NV","city":"Las Vegas","neighborhood":"South Summerlin","latitude":36.1486,"longitude":-115.332,"address":"2130 Park Centre Dr, Ste 100","name":"Dave & Buster's","date":"2016-10-30 00:00:00"},{"user_id":"6ZC-0LfOAGwaFc5XPke74w","state":"NV","city":"Las Vegas","neighborhood":"Downtown","latitude":36.159,"longitude":-115.147,"address":"511 E Charleston Blvd","name":"24 Hour Smoke Shop & Gold Rush","date":"2016-10-14 00:00:00"},{"user_id":"6ZC-0LfOAGwaFc5XPke74w","state":"NV","city":"Las Vegas","neighborhood":"Southeast","latitude":36.0593,"longitude":-115.12,"address":"7211 S Eastern Ave, Ste 110","name":"Wonderful Smiles Dental","date":"2016-09-13 00:00:00"},{"user_id":"6ZC-0LfOAGwaFc5XPke74w","state":"NV","city":"Henderson","neighborhood":"","latitude":36.0367,"longitude":-115.03,"address":"129 N Gibson Rd","name":"Hot Tub Liquidators","date":"2016-07-27 00:00:00"},{"user_id":"3nDUQBjKyVor5wV0reJChg","state":"NV","city":"Las Vegas","neighborhood":"Westside","latitude":36.1715,"longitude":-115.205,"address":"4700 Meadows Ln","name":"Cardenas Market","date":"2017-07-23 00:00:00"},{"user_id":"3nDUQBjKyVor5wV0reJChg","state":"NV","city":"Las Vegas","neighborhood":"","latitude":36.0759,"longitude":-115.192,"address":"6265 S Valley View Blvd, Ste K","name":"Cured & Whey","date":"2017-07-21 00:00:00"},{"user_id":"3nDUQBjKyVor5wV0reJChg","state":"NV","city":"Las Vegas","neighborhood":"","latitude":36.0759,"longitude":-115.192,"address":"6265 S Valley View Blvd, Ste K","name":"Cured & Whey","date":"2017-07-21 00:00:00"},{"user_id":"3nDUQBjKyVor5wV0reJChg","state":"NV","city":"Las Vegas","neighborhood":"","latitude":36.0759,"longitude":-115.192,"address":"6265 S Valley View Blvd, Ste K","name":"Cured & Whey","date":"2017-07-21 00:00:00"},{"user_id":"3nDUQBjKyVor5wV0reJChg","state":"NV","city":"Las Vegas","neighborhood":"The Strip","latitude":36.1143,"longitude":-115.171,"address":"3645 S Las Vegas Blvd","name":"The Miss Behave Gameshow","date":"2017-07-14 00:00:00"},{"user_id":"3nDUQBjKyVor5wV0reJChg","state":"NV","city":"Boulder City","neighborhood":"","latitude":35.9784,"longitude":-114.836,"address":"1224 Arizona St","name":"The Dillinger","date":"2017-07-09 00:00:00"},{"user_id":"3nDUQBjKyVor5wV0reJChg","state":"NV","city":"Las Vegas","neighborhood":"The Strip","latitude":36.1227,"longitude":-115.17,"address":"3355 South Las Vegas Blvd, Ste 106","name":"Chica","date":"2017-06-30 00:00:00"},{"user_id":"3nDUQBjKyVor5wV0reJChg","state":"NV","city":"Las Vegas","neighborhood":"Westside","latitude":36.1455,"longitude":-115.193,"address":"3886 W Sahara Ave","name":"Peru Chicken","date":"2017-06-24 00:00:00"},{"user_id":"3nDUQBjKyVor5wV0reJChg","state":"NV","city":"Las Vegas","neighborhood":"Southwest","latitude":36.0468,"longitude":-115.244,"address":"7775 S Rainbow Blvd, Ste 105","name":"Soyo Korean Barstaurant","date":"2017-06-04 00:00:00"},{"user_id":"0tvCcnfJnSs55iB6mqPk3w","state":"NV","city":"Henderson","neighborhood":"","latitude":36.0203,"longitude":-115.049,"address":"201 S Stephanie St","name":"Albertsons","date":"2017-07-25 00:00:00"},{"user_id":"0tvCcnfJnSs55iB6mqPk3w","state":"NV","city":"Las Vegas","neighborhood":"Sunrise","latitude":36.1431,"longitude":-115.066,"address":"2585 S Nellis Blvd, Ste 1","name":"Starbucks","date":"2017-07-25 00:00:00"},{"user_id":"0tvCcnfJnSs55iB6mqPk3w","state":"NV","city":"North Las Vegas","neighborhood":"","latitude":36.2394,"longitude":-115.116,"address":"2517 E Craig Rd","name":"Starbucks","date":"2017-07-22 00:00:00"},{"user_id":"0tvCcnfJnSs55iB6mqPk3w","state":"NV","city":"Las Vegas","neighborhood":"Downtown","latitude":36.1712,"longitude":-115.146,"address":"1 Fremont St","name":"Golden Gate Hotel & Casino","date":"2017-07-20 00:00:00"},{"user_id":"0tvCcnfJnSs55iB6mqPk3w","state":"NV","city":"Las Vegas","neighborhood":"Southeast","latitude":36.0725,"longitude":-115.101,"address":"6475 Pecos Rd, Ste B","name":"Aloha Hawaiian BBQ","date":"2017-07-18 00:00:00"},{"user_id":"0tvCcnfJnSs55iB6mqPk3w","state":"NV","city":"Las Vegas","neighborhood":"The Strip","latitude":36.1277,"longitude":-115.166,"address":"3131 Las Vegas Blvd S","name":"Wynn Las Vegas","date":"2017-07-14 00:00:00"},{"user_id":"0tvCcnfJnSs55iB6mqPk3w","state":"NV","city":"Clark","neighborhood":"","latitude":36.1242,"longitude":-114.902,"address":"Northshore Rd","name":"Wetlands Trail","date":"2017-07-14 00:00:00"},{"user_id":"0tvCcnfJnSs55iB6mqPk3w","state":"NV","city":"Las Vegas","neighborhood":"Sunrise","latitude":36.1391,"longitude":-115.067,"address":"2775 S Nellis Blvd","name":"China Passion","date":"2017-07-12 00:00:00"},{"user_id":"0tvCcnfJnSs55iB6mqPk3w","state":"NV","city":"Las Vegas","neighborhood":"Eastside","latitude":36.1249,"longitude":-115.135,"address":"3528 S Maryland Pkwy","name":"The Boulevard","date":"2017-07-11 00:00:00"},{"user_id":"PKEzKWv_FktMm2mGPjwd0Q","state":"NV","city":"Las Vegas","neighborhood":"Summerlin","latitude":36.202,"longitude":-115.283,"address":"2227 N Rampart Blvd","name":"Omelet House Summerlin","date":"2017-07-12 00:00:00"},{"user_id":"PKEzKWv_FktMm2mGPjwd0Q","state":"NV","city":"Las Vegas","neighborhood":"The Strip","latitude":36.0908,"longitude":-115.177,"address":"3950 S Las Vegas Blvd","name":"Libertine Social","date":"2017-07-03 00:00:00"},{"user_id":"PKEzKWv_FktMm2mGPjwd0Q","state":"NV","city":"Las Vegas","neighborhood":"Westside","latitude":36.1757,"longitude":-115.292,"address":"221 N Rampart Blvd","name":"Hawthorn Grill","date":"2017-06-28 00:00:00"},{"user_id":"PKEzKWv_FktMm2mGPjwd0Q","state":"NV","city":"Las Vegas","neighborhood":"The Strip","latitude":36.1227,"longitude":-115.17,"address":"3355 South Las Vegas Blvd, Ste 106","name":"Chica","date":"2017-06-24 00:00:00"},{"user_id":"PKEzKWv_FktMm2mGPjwd0Q","state":"NV","city":"Las Vegas","neighborhood":"Summerlin","latitude":36.2075,"longitude":-115.268,"address":"2620 Regatta Dr, Ste 106","name":"March√© Bacchus","date":"2017-06-24 00:00:00"},{"user_id":"PKEzKWv_FktMm2mGPjwd0Q","state":"NV","city":"Las Vegas","neighborhood":"Southwest","latitude":36.0561,"longitude":-115.281,"address":"8680 W Warm Springs Rd","name":"The Black Sheep","date":"2017-06-24 00:00:00"},{"user_id":"PKEzKWv_FktMm2mGPjwd0Q","state":"NV","city":"Las Vegas","neighborhood":"Spring Valley","latitude":36.1284,"longitude":-115.315,"address":"3370 S Hualapai Way, Ste 125","name":"Showboy BakeShop","date":"2017-06-19 00:00:00"},{"user_id":"PKEzKWv_FktMm2mGPjwd0Q","state":"NV","city":"Las Vegas","neighborhood":"Eastside","latitude":36.1162,"longitude":-115.092,"address":"3790 E Flamingo Rd","name":"Blueberry Hill Family Restaurant","date":"2017-06-19 00:00:00"},{"user_id":"PKEzKWv_FktMm2mGPjwd0Q","state":"NV","city":"Las Vegas","neighborhood":"Chinatown","latitude":36.1267,"longitude":-115.201,"address":"4480 Spring Mountain Rd, Ste 100","name":"Sparrow + Wolf","date":"2017-06-19 00:00:00"},{"user_id":"DK57YibC5ShBmqQl97CKog","state":"AZ","city":"Tempe","neighborhood":"","latitude":33.3778,"longitude":-111.939,"address":"107 E Baseline Rd, Ste A-4","name":"Solo Caf√© Gourmet Coffee & Tea House","date":"2017-07-24 00:00:00"},{"user_id":"DK57YibC5ShBmqQl97CKog","state":"AZ","city":"Tempe","neighborhood":"","latitude":33.4217,"longitude":-111.925,"address":"927 E University Dr","name":"BurgerFi","date":"2017-07-23 00:00:00"},{"user_id":"DK57YibC5ShBmqQl97CKog","state":"AZ","city":"Chandler","neighborhood":"","latitude":33.3052,"longitude":-111.903,"address":"3111 W Chandler Blvd","name":"Boba Tea Company","date":"2017-07-23 00:00:00"},{"user_id":"DK57YibC5ShBmqQl97CKog","state":"AZ","city":"Tempe","neighborhood":"","latitude":33.4217,"longitude":-111.925,"address":"927 E University Dr","name":"BurgerFi","date":"2017-07-22 00:00:00"},{"user_id":"DK57YibC5ShBmqQl97CKog","state":"AZ","city":"Chandler","neighborhood":"","latitude":33.3014,"longitude":-111.899,"address":"3111 W Chandler Blvd, Ste 1042","name":"Attic Salt","date":"2017-07-22 00:00:00"},{"user_id":"DK57YibC5ShBmqQl97CKog","state":"AZ","city":"Mesa","neighborhood":"","latitude":33.4136,"longitude":-111.872,"address":"1911 W Main St, Ste 3D","name":"Ice Lab","date":"2017-07-21 00:00:00"},{"user_id":"DK57YibC5ShBmqQl97CKog","state":"AZ","city":"Mesa","neighborhood":"","latitude":33.4136,"longitude":-111.872,"address":"1911 W Main St, Ste 3D","name":"Ice Lab","date":"2017-07-20 00:00:00"},{"user_id":"DK57YibC5ShBmqQl97CKog","state":"AZ","city":"Phoenix","neighborhood":"","latitude":33.4854,"longitude":-112.069,"address":"3243 N 3rd St","name":"Ocotillo","date":"2017-07-20 00:00:00"},{"user_id":"DK57YibC5ShBmqQl97CKog","state":"AZ","city":"Mesa","neighborhood":"","latitude":33.4324,"longitude":-111.87,"address":"837 N Dobson Rd","name":"Bed Bath & Beyond","date":"2017-07-19 00:00:00"},{"user_id":"UYcmGbelzRa0Q6JqzLoguw","state":"NV","city":"Las Vegas","neighborhood":"Eastside","latitude":36.1153,"longitude":-115.159,"address":"325 Hughes Center Dr","name":"Bandito Latin Kitchen & Cantina","date":"2017-06-15 00:00:00"},{"user_id":"UYcmGbelzRa0Q6JqzLoguw","state":"NV","city":"Las Vegas","neighborhood":"Southeast","latitude":36.0285,"longitude":-115.135,"address":"8880 S Maryland Pkwy","name":"Tables Board Game Spot","date":"2017-06-14 00:00:00"},{"user_id":"UYcmGbelzRa0Q6JqzLoguw","state":"NV","city":"Las Vegas","neighborhood":"Spring Valley","latitude":36.0946,"longitude":-115.298,"address":"5105 S Ft Apache, Ste 110","name":"Infused Tea Lounge","date":"2017-06-12 00:00:00"},{"user_id":"UYcmGbelzRa0Q6JqzLoguw","state":"NV","city":"Las Vegas","neighborhood":"Spring Valley","latitude":36.0997,"longitude":-115.302,"address":"9595 W Tropicana Ave","name":"Metro Diner","date":"2017-06-12 00:00:00"},{"user_id":"UYcmGbelzRa0Q6JqzLoguw","state":"NV","city":"Las Vegas","neighborhood":"Downtown","latitude":36.1665,"longitude":-115.135,"address":"927 Fremont St","name":"The Kitchen at Atomic","date":"2017-06-12 00:00:00"},{"user_id":"UYcmGbelzRa0Q6JqzLoguw","state":"NV","city":"Las Vegas","neighborhood":"The Strip","latitude":36.1278,"longitude":-115.169,"address":"3200 Las Vegas Blvd S, Ste 1132","name":"RA Sushi Bar Restaurant","date":"2017-05-23 00:00:00"},{"user_id":"UYcmGbelzRa0Q6JqzLoguw","state":"NV","city":"Las Vegas","neighborhood":"Westside","latitude":36.1579,"longitude":-115.313,"address":"9921 W Charleston Blvd","name":"The Cracked Egg","date":"2017-03-23 00:00:00"},{"user_id":"UYcmGbelzRa0Q6JqzLoguw","state":"NV","city":"Las Vegas","neighborhood":"South Summerlin","latitude":36.1515,"longitude":-115.333,"address":"10955 Oval Park Dr, Ste D3","name":"Wolfgang Puck Bar & Grill Summerlin","date":"2017-03-19 00:00:00"},{"user_id":"UYcmGbelzRa0Q6JqzLoguw","state":"NV","city":"Las Vegas","neighborhood":"Westside","latitude":36.1714,"longitude":-115.245,"address":"238 S Rainbow Blvd","name":"Toddy Shop","date":"2017-03-13 00:00:00"},{"user_id":"eZfHm0qI8A_HfvXScwIYsg","state":"AZ","city":"Phoenix","neighborhood":"","latitude":33.3348,"longitude":-111.976,"address":"5110 E Warner Rd, Ste 201","name":"Accurate Acupuncture","date":"2017-07-25 00:00:00"},{"user_id":"eZfHm0qI8A_HfvXScwIYsg","state":"AZ","city":"Tempe","neighborhood":"","latitude":33.3497,"longitude":-111.948,"address":"710 W Elliot Rd, Ste 102","name":"Harvest of Tempe","date":"2017-07-23 00:00:00"},{"user_id":"eZfHm0qI8A_HfvXScwIYsg","state":"AZ","city":"Chandler","neighborhood":"","latitude":33.3182,"longitude":-111.966,"address":"7131 W Ray Rd, Ste 28","name":"Bath & Body Works","date":"2017-07-20 00:00:00"},{"user_id":"eZfHm0qI8A_HfvXScwIYsg","state":"AZ","city":"Tempe","neighborhood":"","latitude":33.3497,"longitude":-111.948,"address":"710 W Elliot Rd, Ste 102","name":"Harvest of Tempe","date":"2017-07-20 00:00:00"},{"user_id":"eZfHm0qI8A_HfvXScwIYsg","state":"AZ","city":"Tempe","neighborhood":"","latitude":33.3506,"longitude":-111.912,"address":"1730 E Elliot Rd, Ste 10","name":"Arizona World of Baseball","date":"2017-07-19 00:00:00"},{"user_id":"eZfHm0qI8A_HfvXScwIYsg","state":"AZ","city":"Tempe","neighborhood":"","latitude":33.3506,"longitude":-111.912,"address":"1730 E Elliot Rd, Ste 10","name":"Arizona World of Baseball","date":"2017-07-17 00:00:00"},{"user_id":"eZfHm0qI8A_HfvXScwIYsg","state":"AZ","city":"Phoenix","neighborhood":"","latitude":33.3298,"longitude":-111.98,"address":"12925 S 48th St","name":"Andy's Frozen Custard","date":"2017-07-17 00:00:00"},{"user_id":"eZfHm0qI8A_HfvXScwIYsg","state":"AZ","city":"Tempe","neighborhood":"","latitude":33.3497,"longitude":-111.964,"address":"7510 S Priest Dr","name":"Nara Hookah Lounge & Bar","date":"2017-07-16 00:00:00"},{"user_id":"eZfHm0qI8A_HfvXScwIYsg","state":"AZ","city":"Chandler","neighborhood":"","latitude":33.316,"longitude":-111.971,"address":"870 N 54th St","name":"REI","date":"2017-07-16 00:00:00"}]}